City_ID,City,Country,Lat,Lng,Max Temp,Humidity,Cloudiness,Wind Speed,Current Description
0,Narsaq,GL,60.9167,-46.05,37.29,99,100,7.94,light rain
1,Thompson,CA,55.7435,-97.8558,-3.84,77,75,2.3,broken clouds
2,Nikolskoye,RU,59.7035,30.7861,40.87,97,100,12.91,overcast clouds
3,Mwinilunga,ZM,-11.7358,24.4293,62.64,84,100,2.55,overcast clouds
4,Avinurme,EE,58.9822,26.8642,37.04,95,100,13.2,overcast clouds
5,Cherskiy,RU,68.75,161.3,-27.87,100,100,4.43,overcast clouds
6,Jamestown,US,42.097,-79.2353,44.19,95,90,5.99,mist
7,San Fernando,PH,15.0286,120.6898,80.69,80,100,4.59,overcast clouds
8,Rikitea,PF,-23.1203,-134.9692,76.95,70,9,9.98,clear sky
9,Upernavik,GL,72.7868,-56.1549,22.33,76,100,9.35,overcast clouds
10,Butaritari,KI,3.0707,172.7902,82.49,73,95,17.34,overcast clouds
11,Saint-Philippe,RE,-21.3585,55.7679,78.39,82,60,2.42,broken clouds
12,Sampit,ID,-2.5333,112.95,77.88,87,100,2.84,overcast clouds
13,Port Alfred,ZA,-33.5906,26.891,63.97,76,100,21.9,overcast clouds
14,Lasa,IT,46.6166,10.7002,36.34,96,100,0.94,overcast clouds
15,Hambantota,LK,6.1241,81.1185,77.04,88,98,7.92,overcast clouds
16,Busselton,AU,-33.65,115.3333,66.09,54,87,9.24,overcast clouds
17,Kargasok,RU,59.0556,80.8572,0.12,97,57,7.52,broken clouds
18,Cape Town,ZA,-33.9258,18.4232,66.09,60,0,13.8,clear sky
19,Jertih,MY,5.7336,102.4897,73.27,98,100,0.87,heavy intensity rain
20,Chokurdakh,RU,70.6333,147.9167,-30.86,100,26,3.89,scattered clouds
21,Hilo,US,19.7297,-155.09,83.28,93,90,0.0,moderate rain
22,Ahipara,NZ,-35.1667,173.1667,65.84,68,57,4.27,broken clouds
23,Tiksi,RU,71.6872,128.8694,1.99,79,100,5.64,overcast clouds
24,Chuy,UY,-33.6971,-53.4616,63.86,97,96,5.79,light rain
25,Portland,US,45.5234,-122.6762,56.77,69,75,1.01,broken clouds
26,Muisne,EC,0.6,-80.0333,74.07,79,100,7.83,overcast clouds
27,Opuwo,NA,-18.0607,13.84,67.8,16,3,11.16,clear sky
28,Mataura,NZ,-46.1927,168.8643,56.5,79,100,4.56,overcast clouds
29,Houma,US,29.5958,-90.7195,70.0,90,85,1.01,light rain
30,New Norfolk,AU,-42.7826,147.0587,59.72,41,31,3.0,scattered clouds
31,Punta Arenas,CL,-53.15,-70.9167,48.31,53,40,24.16,scattered clouds
32,Bismarck,US,46.8083,-100.7837,31.87,80,90,1.99,overcast clouds
33,Bluff,NZ,-46.6,168.3333,50.31,91,100,11.61,overcast clouds
34,Coos Bay,US,43.3665,-124.2179,55.38,85,1,8.05,clear sky
35,Kampene,CD,-3.6,26.6667,67.73,100,100,1.79,light rain
36,Bambous Virieux,MU,-20.3428,57.7575,75.45,83,40,3.44,scattered clouds
37,Ostrovnoy,RU,68.0531,39.5131,22.26,65,100,8.52,overcast clouds
38,Carnarvon,AU,-24.8667,113.6333,78.87,34,1,5.75,clear sky
39,Bubaque,GW,11.2833,-15.8333,83.59,70,94,10.58,overcast clouds
40,Saint-Paul,RE,-21.0096,55.2707,78.91,89,23,4.16,few clouds
41,Ushuaia,AR,-54.8,-68.3,42.46,70,40,23.02,scattered clouds
42,Vila Velha,BR,-20.3297,-40.2925,75.15,81,75,3.44,broken clouds
43,Boulsa,BF,12.6675,-0.5758,79.32,18,1,8.43,clear sky
44,Rio Gallegos,AR,-51.6226,-69.2181,53.65,32,20,29.93,few clouds
45,A Coruna,ES,43.3713,-8.396,53.58,80,20,7.0,few clouds
46,Neiafu,TO,-18.65,-173.9833,84.88,70,75,5.75,broken clouds
47,Fayaoue,NC,-20.65,166.5333,78.08,75,16,9.31,few clouds
48,Faanui,PF,-16.4833,-151.75,82.38,69,10,17.72,clear sky
49,Road Town,VG,18.4167,-64.6167,78.84,83,40,9.22,scattered clouds
50,Itarema,BR,-2.9248,-39.9167,81.0,75,88,13.98,overcast clouds
51,Hobart,AU,-42.8794,147.3294,60.06,59,75,1.01,broken clouds
52,Rudnyy,KZ,52.9594,63.1206,5.23,93,86,10.67,overcast clouds
53,Arraial Do Cabo,BR,-22.9661,-42.0278,73.36,83,0,11.5,clear sky
54,Khatanga,RU,71.9667,102.5,-11.31,99,99,3.27,overcast clouds
55,Kumluca,TR,36.3703,30.2869,54.68,74,33,4.41,scattered clouds
56,Preston,GB,53.7667,-2.7167,44.15,91,100,3.0,light rain
57,Sumbe,AO,-11.2061,13.8437,77.04,84,100,6.31,overcast clouds
58,Sola,VU,-13.8833,167.55,83.07,79,75,5.75,broken clouds
59,Baykit,RU,61.67,96.37,8.53,96,100,1.05,light snow
60,Shimoda,JP,34.6667,138.95,61.16,56,0,20.33,clear sky
61,Oxford,GB,51.7522,-1.256,38.91,86,99,8.28,overcast clouds
62,Avarua,CK,-21.2078,-159.775,82.45,78,36,10.36,scattered clouds
63,Kodiak,US,57.79,-152.4072,20.71,45,1,21.85,volcanic ash
64,Bundaberg,AU,-24.85,152.35,80.22,92,90,4.0,overcast clouds
65,Hithadhoo,MV,-0.6,73.0833,81.34,69,82,12.82,broken clouds
66,Tambopata,PE,-12.7333,-69.1833,78.69,83,20,3.44,few clouds
67,Gravdal,NO,68.1214,13.5031,30.49,55,35,6.4,light snow
68,Columbus,US,39.9612,-82.9988,46.81,93,90,4.0,overcast clouds
69,Presidencia Roque Saenz Pena,AR,-26.7852,-60.4388,76.89,70,16,6.64,few clouds
70,Hofn,IS,64.2539,-15.2082,32.29,55,0,29.89,clear sky
71,Lavrentiya,RU,65.5833,-171.0,-5.93,87,7,9.06,clear sky
72,Husavik,IS,66.0449,-17.3389,30.11,81,99,23.42,light snow
73,Jiquilpan,MX,19.7798,-103.7768,65.32,47,15,1.88,few clouds
74,Puerto Madryn,AR,-42.7692,-65.0385,63.61,48,5,13.91,clear sky
75,Kavieng,PG,-2.5744,150.7967,85.37,65,67,6.49,broken clouds
76,Norman Wells,CA,65.282,-126.8329,-16.56,69,90,6.91,light snow
77,Half Moon Bay,US,37.4636,-122.4286,68.14,55,1,0.0,clear sky
78,Burdur,TR,37.7203,30.2908,41.7,93,75,4.61,broken clouds
79,San Patricio,US,28.017,-97.5169,57.18,71,100,14.76,overcast clouds
80,Castro,BR,-24.7911,-50.0119,69.53,61,98,4.54,light rain
81,Biak,ID,-0.9131,122.8766,80.76,77,100,1.3,overcast clouds
82,Bethel,US,41.3712,-73.414,50.81,55,79,3.85,broken clouds
83,Dingle,PH,10.9995,122.6711,80.29,88,100,6.15,overcast clouds
84,Casper,US,42.8666,-106.3131,40.8,45,33,14.52,scattered clouds
85,Touros,BR,-5.1989,-35.4608,81.5,79,34,11.03,scattered clouds
86,Mehamn,NO,71.0357,27.8492,13.95,62,0,14.97,clear sky
87,Ilulissat,GL,69.2167,-51.1,12.52,80,100,5.84,overcast clouds
88,Harper,LR,4.375,-7.7169,79.34,84,57,8.14,light rain
89,Longyearbyen,SJ,78.2186,15.6401,10.24,67,40,18.41,scattered clouds
90,Chancay,PE,-11.5714,-77.2672,71.33,88,99,7.36,overcast clouds
91,Ucluelet,CA,48.9329,-125.5528,53.1,94,100,1.99,overcast clouds
92,Robertsport,LR,6.7533,-11.3686,81.37,79,7,8.61,light rain
93,Hermanus,ZA,-34.4187,19.2345,62.8,74,0,28.16,clear sky
94,Provideniya,RU,64.3833,-173.3,3.31,60,20,6.71,few clouds
95,Tubuala,PA,9.5167,-79.0333,77.32,88,100,2.64,overcast clouds
96,Russell,US,32.3502,-85.1999,56.98,82,75,0.0,broken clouds
97,Muros,ES,42.7762,-9.0603,51.84,84,29,18.1,scattered clouds
98,Albany,US,42.6001,-73.9662,42.8,71,100,1.54,overcast clouds
99,Teknaf,BD,20.8624,92.3058,68.83,71,1,4.83,clear sky
100,Namatanai,PG,-3.6667,152.4333,85.28,64,91,3.11,overcast clouds
101,Puerto Ayora,EC,-0.7393,-90.3518,70.56,87,73,11.01,broken clouds
102,Padang,ID,-0.9492,100.3543,75.25,80,90,4.43,overcast clouds
103,Port Elizabeth,ZA,-33.918,25.5701,64.69,77,75,17.27,broken clouds
104,Marathon,US,44.9,-89.7668,20.44,70,58,12.37,broken clouds
105,Yellowknife,CA,62.456,-114.3525,11.41,91,90,13.8,light snow
106,Kultuk,RU,51.7208,103.6956,28.15,83,98,4.0,overcast clouds
107,Airai,TL,-8.9266,125.4092,70.81,71,52,0.4,broken clouds
108,Richards Bay,ZA,-28.783,32.0377,65.28,74,100,4.07,overcast clouds
109,Saint-Pierre,RE,-21.3393,55.4781,78.48,67,90,0.0,overcast clouds
110,Constitucion,CL,-35.3333,-72.4167,57.96,75,4,15.14,clear sky
111,Viedma,AR,-40.8135,-62.9967,65.12,44,0,8.08,clear sky
112,San Cristobal,VE,7.7669,-72.225,71.78,98,89,0.49,overcast clouds
113,Yulara,AU,-25.2406,130.9889,66.04,59,0,12.66,clear sky
114,Puerto Palomas,MX,31.7667,-107.6167,51.94,32,92,11.36,overcast clouds
115,Salinopolis,BR,-0.6136,-47.3561,79.97,82,99,8.16,overcast clouds
116,Atuona,PF,-9.8,-139.0333,78.73,78,12,17.65,light rain
117,Santona,ES,43.4439,-3.4576,49.93,84,100,11.05,light rain
118,Madimba,TZ,-10.4,40.3333,77.29,82,98,6.17,overcast clouds
119,Dikson,RU,73.5069,80.5464,-1.14,96,100,3.09,overcast clouds
120,Ponta Do Sol,PT,32.6667,-17.1,64.71,65,100,6.15,overcast clouds
121,Port Hardy,CA,50.6996,-127.4199,48.38,87,90,3.44,light rain
122,Kapaa,US,22.0752,-159.319,82.38,72,29,1.99,scattered clouds
123,Severo-Kurilsk,RU,50.6789,156.125,35.53,87,87,7.14,overcast clouds
124,Pisco,PE,-13.7,-76.2167,66.25,82,0,14.97,clear sky
125,Sarangani,PH,5.4033,125.4636,80.92,79,100,7.83,overcast clouds
126,Aksaray,TR,38.3726,34.0254,42.39,87,15,2.28,few clouds
127,Ballina,AU,-28.8667,153.5667,78.78,94,99,15.79,overcast clouds
128,Berbera,SO,10.4396,45.0143,79.72,78,35,4.52,light rain
129,Birjand,IR,32.8663,59.2211,41.47,75,0,4.61,clear sky
130,Georgetown,MY,5.4112,100.3354,77.9,94,20,0.0,few clouds
131,Vila Franca Do Campo,PT,37.7167,-25.4333,60.19,75,67,16.55,broken clouds
132,Mar Del Plata,AR,-38.0023,-57.5575,66.22,89,0,1.01,clear sky
133,Dzerzhinskoye,RU,56.8344,95.2283,25.9,96,100,8.57,light snow
134,Lianzhou,CN,24.7811,112.3825,54.45,73,0,2.98,clear sky
135,Tura,IN,25.5198,90.2201,56.93,63,0,3.51,clear sky
136,Grants,US,35.1473,-107.8514,43.03,45,1,4.61,clear sky
137,Guiglo,CI,6.5456,-7.4966,73.22,72,19,2.33,few clouds
138,Jalu,LY,29.0331,21.5482,69.76,28,1,14.94,clear sky
139,Pizarro,CO,4.9533,-77.366,75.29,94,100,9.4,moderate rain
140,Finschhafen,PG,-6.6024,147.8681,85.73,67,96,5.73,light rain
141,Colombo,LK,6.9319,79.8478,73.35,90,93,5.61,overcast clouds
142,Tuktoyaktuk,CA,69.4541,-133.0374,-0.4,78,40,16.11,scattered clouds
143,Aykhal,RU,66.0,111.5,-1.64,99,100,7.31,overcast clouds
144,Huarmey,PE,-10.0681,-78.1522,67.51,84,89,8.05,overcast clouds
145,Lompoc,US,34.6391,-120.4579,75.09,57,1,11.5,clear sky
146,Marawi,PH,7.9986,124.2928,68.65,85,100,1.1,overcast clouds
147,Boende,CD,-0.2167,20.8667,71.49,93,52,0.72,broken clouds
148,Roald,NO,62.5833,6.1333,32.32,93,40,6.91,light snow
149,Saskylakh,RU,71.9167,114.0833,-13.45,98,55,8.16,broken clouds
150,Chara,RU,56.9064,118.2631,-7.96,75,2,1.81,clear sky
151,Bahia Honda,CU,22.9036,-83.1592,72.27,75,23,10.89,few clouds
152,Svetlyy,RU,54.675,20.1347,37.45,84,100,21.05,overcast clouds
153,Kahului,US,20.8947,-156.47,83.46,71,40,23.02,scattered clouds
154,Urusha,RU,54.05,122.9,1.0,97,96,1.43,overcast clouds
155,Maturin,VE,9.75,-63.1767,75.54,84,35,5.99,scattered clouds
156,Vung Tau,VN,10.346,107.0843,76.64,86,100,7.23,overcast clouds
157,Kaitangata,NZ,-46.2817,169.8464,57.7,72,100,5.48,overcast clouds
158,Usinsk,RU,65.9939,57.5281,-6.83,100,90,4.56,overcast clouds
159,Clyde River,CA,70.4692,-68.5914,-1.03,99,100,3.29,overcast clouds
160,Vaini,TO,-21.2,-175.2,87.96,79,75,6.91,broken clouds
161,Eenhana,NA,-17.4667,16.3333,74.7,14,5,11.83,clear sky
162,Udachnyy,RU,66.4167,112.4,-4.29,98,100,5.97,overcast clouds
163,Cabo San Lucas,MX,22.8909,-109.9124,79.61,71,90,3.44,overcast clouds
164,Leningradskiy,RU,69.3833,178.4167,-23.31,97,99,5.03,overcast clouds
165,Oussouye,SN,12.485,-16.5469,78.98,78,93,5.75,overcast clouds
166,Puerto Escondido,MX,15.85,-97.0667,79.84,76,6,2.15,clear sky
167,Samarai,PG,-10.6167,150.6667,84.94,70,98,13.24,overcast clouds
168,Aklavik,CA,68.2191,-135.0107,-4.0,77,90,9.22,overcast clouds
169,Katsuura,JP,35.1333,140.3,60.19,56,0,8.32,clear sky
170,Balkhash,KZ,46.844,74.9804,22.28,57,18,15.84,few clouds
171,Chapais,CA,49.7834,-74.8492,28.18,99,100,2.71,light snow
172,Pokhara,NP,28.2333,83.9833,53.98,69,25,4.23,scattered clouds
173,Tuatapere,NZ,-46.1333,167.6833,51.22,98,100,5.08,light rain
174,Salvador,SV,13.8333,-88.9167,71.17,76,99,0.69,overcast clouds
175,Bathsheba,BB,13.2167,-59.5167,77.61,88,20,5.75,few clouds
176,Isangel,VU,-19.55,169.2667,87.91,66,75,9.22,broken clouds
177,East London,ZA,-33.0153,27.9116,62.96,79,100,14.43,light rain
178,Mount Gambier,AU,-37.8333,140.7667,55.31,67,90,24.16,overcast clouds
179,Shingu,JP,33.7333,135.9833,56.39,65,0,5.12,clear sky
180,Nhulunbuy,AU,-12.2333,136.7667,88.41,66,75,6.91,broken clouds
181,Coquimbo,CL,-29.9533,-71.3436,60.53,82,75,8.05,broken clouds
182,Sarh,TD,9.1429,18.3923,67.91,88,0,0.0,clear sky
183,Zhenhai,CN,24.2582,118.0905,65.08,63,6,12.26,clear sky
184,Kuching,MY,1.55,110.3333,75.42,100,40,0.0,fog
185,Hasaki,JP,35.7333,140.8333,52.29,56,0,5.93,clear sky
186,Butterworth,MY,5.3991,100.3638,77.09,93,20,0.0,few clouds
187,General Roca,AR,-39.0333,-67.5833,81.0,19,15,17.83,few clouds
188,Guerrero Negro,MX,27.9769,-114.0611,73.11,43,0,7.94,clear sky
189,Bredasdorp,ZA,-34.5322,20.0403,62.28,77,17,25.72,few clouds
190,Esmeraldas,BR,-19.7625,-44.3139,78.04,82,29,5.3,scattered clouds
191,Lemont,US,41.6736,-88.0017,32.32,83,90,18.41,overcast clouds
192,Lahij,YE,13.1667,44.5833,72.97,70,11,3.4,few clouds
193,Acapulco,MX,16.8634,-99.8901,79.41,79,5,5.06,clear sky
194,Maningrida,AU,-12.0667,134.2667,90.09,53,79,3.42,broken clouds
195,Maniitsoq,GL,65.4167,-52.9,25.29,69,100,9.78,overcast clouds
196,Mahebourg,MU,-20.4081,57.7,75.49,83,40,3.44,scattered clouds
197,Lam Luk Ka,TH,13.9323,100.7494,76.98,79,20,5.75,few clouds
198,Maraba,BR,-5.3686,-49.1178,82.58,74,75,4.61,very heavy rain
199,Victoria,HK,22.2855,114.1577,69.24,64,9,6.15,clear sky
200,Quelimane,MZ,-17.8786,36.8883,76.95,83,75,7.0,broken clouds
201,Kemlya,RU,54.6963,45.2424,33.75,93,100,13.0,overcast clouds
202,Qaanaaq,GL,77.484,-69.3632,-2.83,79,100,6.64,overcast clouds
203,Dolinsk,RU,47.35,142.8,15.66,68,38,4.72,scattered clouds
204,Flinders,AU,-34.5833,150.8552,64.2,91,100,7.0,light rain
205,Saint Anthony,US,45.0205,-93.218,21.04,48,1,1.01,clear sky
206,Ribeira Grande,PT,38.5167,-28.7,63.45,67,58,22.41,broken clouds
207,Port Blair,IN,11.6667,92.75,78.12,84,99,2.37,overcast clouds
208,Matara,LK,5.9485,80.5353,75.34,92,99,6.71,overcast clouds
209,Nouadhibou,MR,20.931,-17.0347,70.14,79,16,7.63,few clouds
210,Koslan,RU,63.4564,48.8989,13.12,93,100,5.55,overcast clouds
211,Sabya,SA,17.1495,42.6254,82.02,67,3,5.44,clear sky
212,Kingsport,US,36.5484,-82.5618,53.71,82,90,1.01,moderate rain
213,Iqaluit,CA,63.7506,-68.5145,22.73,74,40,9.22,scattered clouds
214,Mongoumba,CF,3.6415,18.5936,72.09,58,10,1.5,clear sky
215,Banda Aceh,ID,5.5577,95.3222,78.12,84,99,1.92,overcast clouds
216,Port Lincoln,AU,-34.7333,135.8667,60.03,52,100,19.33,overcast clouds
217,Isiro,CD,2.7739,27.616,65.98,78,77,3.0,broken clouds
218,Anadyr,RU,64.75,177.4833,-8.9,77,75,11.18,fog
219,Te Anau,NZ,-45.4167,167.7167,53.89,93,100,5.97,light rain
220,Hervey Bay,AU,-25.2986,152.8535,80.04,92,100,8.01,overcast clouds
221,Lagoa,PT,39.05,-27.9833,61.84,67,73,32.55,broken clouds
222,Baie-Comeau,CA,49.2168,-68.1489,33.28,80,1,6.91,clear sky
223,Barrow,US,71.2906,-156.7887,-10.46,97,89,13.8,overcast clouds
224,Iskateley,RU,67.6803,53.1512,3.42,94,59,4.36,broken clouds
225,Tasiilaq,GL,65.6145,-37.6368,16.65,54,30,9.42,scattered clouds
226,Kaka,TM,37.3482,59.6143,47.53,63,100,5.93,overcast clouds
227,Beeville,US,28.4008,-97.7483,57.29,76,75,10.36,broken clouds
228,Alexandria,EG,31.2156,29.9553,60.76,88,23,2.3,few clouds
229,Baruun-Urt,MN,46.6806,113.2792,13.51,82,20,11.5,few clouds
230,Nova Borova,UA,50.693,28.6345,32.34,81,5,13.89,clear sky
231,Onega,RU,63.9061,38.1404,24.8,94,100,12.91,light snow
232,Lamar,US,33.6668,-95.5836,51.71,40,1,14.97,clear sky
233,Vardo,NO,70.3705,31.1107,25.25,70,87,11.9,overcast clouds
234,Gladstone,AU,-23.85,151.25,78.73,83,75,10.36,broken clouds
235,Gloggnitz,AT,47.6749,15.9389,35.02,78,95,0.72,overcast clouds
236,Cayenne,GF,4.9333,-52.3333,81.09,86,20,3.44,few clouds
237,Asau,RO,46.4333,26.4,33.76,73,2,6.17,clear sky
238,Omsukchan,RU,62.5333,155.8,-27.0,99,25,4.38,scattered clouds
239,Kieta,PG,-6.2167,155.6333,85.86,65,62,3.8,broken clouds
240,Nanortalik,GL,60.1432,-45.2371,39.06,98,100,10.63,moderate rain
241,Dabakala,CI,8.3667,-4.4333,78.55,52,1,0.72,clear sky
242,Garissa,KE,-0.4536,39.6401,80.33,72,93,12.5,overcast clouds
243,College,US,64.8569,-147.8028,-2.78,70,100,1.01,light snow
244,Odweyne,SO,9.4092,45.064,68.18,57,75,12.55,broken clouds
245,Mana,GF,5.6592,-53.7767,78.28,85,76,6.29,broken clouds
246,Rafaela,AR,-31.2503,-61.4867,74.05,61,0,4.0,clear sky
247,Luderitz,NA,-26.6481,15.1594,58.46,95,6,2.33,clear sky
248,Gondanglegi,ID,-7.7479,112.0132,80.73,79,95,10.76,light rain
249,The Pas,CA,53.8251,-101.2541,14.02,79,90,13.8,light snow
250,Bambui,BR,-20.0064,-45.9769,71.64,67,35,4.05,scattered clouds
251,Faro,PT,37.0194,-7.9322,46.18,100,20,4.61,few clouds
252,Ixtapa,MX,20.7,-105.2,74.66,67,48,1.83,scattered clouds
253,Mahon,ES,39.8885,4.2658,48.76,87,75,6.91,broken clouds
254,Tutoia,BR,-2.7619,-42.2744,84.18,77,93,11.97,overcast clouds
255,Awjilah,LY,29.1081,21.2869,71.11,27,2,16.06,clear sky
256,Port Macquarie,AU,-31.4333,152.9167,71.89,100,90,12.66,light rain
257,Xining,CN,36.6167,101.7667,26.67,41,14,1.92,few clouds
258,Ewa Beach,US,21.3156,-158.0072,83.57,61,1,13.8,clear sky
259,Portugalete,ES,43.321,-3.0206,49.48,85,75,4.0,light rain
260,Henties Bay,NA,-22.116,14.2845,59.86,94,7,2.91,clear sky
261,Merauke,ID,-8.4667,140.3333,84.0,68,100,7.85,overcast clouds
262,Lebu,CL,-37.6167,-73.65,55.0,92,10,13.73,clear sky
263,Svobodnyy,RU,51.4,128.1333,10.6,86,51,8.88,broken clouds
264,Izhevskoye,RU,54.5567,40.8703,34.61,81,100,14.61,overcast clouds
265,Bengkulu,ID,-3.8004,102.2655,78.8,80,97,2.66,overcast clouds
266,Ambilobe,MG,-13.2,49.05,75.99,79,95,2.3,overcast clouds
267,Evensk,RU,61.95,159.2333,-8.88,81,1,12.24,clear sky
268,Hay River,CA,60.8156,-115.7999,12.18,85,90,3.44,light snow
269,Jaque,PA,7.5175,-78.1703,77.72,85,90,0.67,light rain
270,Geraldton,AU,-28.7667,114.6,88.21,12,0,19.57,clear sky
271,Krasnoselkup,RU,65.7,82.4667,1.54,96,99,10.38,overcast clouds
272,Nurota,UZ,40.5614,65.6886,35.69,67,100,8.61,overcast clouds
273,Oparino,RU,59.8518,48.2783,17.82,93,100,9.73,light snow
274,Lorengau,PG,-2.0226,147.2712,84.99,66,100,6.15,overcast clouds
275,Mandalgovi,MN,45.7625,106.2708,21.99,63,0,9.01,clear sky
276,Loikaw,MM,19.6742,97.2094,60.1,97,19,0.94,few clouds
277,Suhbaatar,MN,50.2314,106.2078,7.11,96,52,3.11,broken clouds
278,Bereda,ES,43.2686,-7.5406,48.92,100,93,6.58,light rain
279,Botwood,CA,49.1499,-55.3482,50.9,98,100,8.23,overcast clouds
280,Savannah Bight,HN,16.45,-85.85,73.45,75,72,11.07,broken clouds
281,Talnakh,RU,69.4865,88.3972,2.1,96,100,6.15,overcast clouds
282,Luganville,VU,-15.5333,167.1667,83.71,66,0,8.12,clear sky
283,Broome,US,42.2506,-75.833,43.84,71,100,1.01,light rain
284,Terney,RU,45.0503,136.6092,24.42,65,66,12.33,broken clouds
285,Dicabisagan,PH,17.0818,122.4157,76.03,93,100,5.3,light rain
286,Paracuru,BR,-3.41,-39.0306,82.42,76,79,10.54,broken clouds
287,Coahuayana,MX,18.7333,-103.6833,77.74,76,5,3.13,clear sky
288,Tanete,ID,-3.9443,119.7848,82.44,82,67,2.84,broken clouds
289,Klaksvik,FO,62.2266,-6.589,36.52,67,73,37.76,broken clouds
290,Tommot,RU,58.9564,126.2925,-11.45,98,44,1.99,scattered clouds
291,Kandrian,PG,-6.2167,149.55,85.15,68,100,2.66,overcast clouds
292,Taungdwingyi,MM,20.0167,95.55,68.74,91,4,1.68,clear sky
293,Seminole,US,28.7086,-81.2081,70.27,81,99,1.01,overcast clouds
294,Kruisfontein,ZA,-34.0033,24.7314,61.88,80,100,18.39,overcast clouds
295,Mogadishu,SO,2.0371,45.3438,80.94,80,100,15.59,light rain
296,Pokrovsk,UA,48.282,37.1758,26.28,79,0,7.25,clear sky
297,Pamanukan,ID,-6.2842,107.8106,81.93,74,92,2.08,overcast clouds
298,Mitrofanovka,RU,49.9708,39.6939,25.75,90,13,7.74,few clouds
299,Marsh Harbour,BS,26.5412,-77.0636,73.13,65,71,14.45,broken clouds
300,Nago,JP,26.5881,127.9761,69.87,62,100,9.24,overcast clouds
301,Qaracala,AZ,39.8132,48.9523,46.51,69,100,5.77,overcast clouds
302,Takoradi,GH,4.8845,-1.7554,80.08,84,7,8.3,clear sky
303,Inhambane,MZ,-23.865,35.3833,69.96,75,8,9.22,clear sky
304,Qarayeri,AZ,40.7886,46.3066,41.88,93,90,6.91,overcast clouds
305,Waipawa,NZ,-41.4122,175.5153,65.03,52,76,24.4,broken clouds
306,Lubao,PH,14.9167,120.55,80.67,80,100,6.33,light rain
307,Pathein,MM,16.7833,94.7333,72.41,94,74,4.29,broken clouds
308,Thessalon,CA,46.2501,-83.5666,28.69,91,100,15.59,light snow
309,Port Said,EG,31.2565,32.2841,64.38,82,0,0.0,clear sky
310,Vao,NC,-22.6667,167.4833,75.67,85,23,16.87,few clouds
311,Petropavlovsk-Kamchatskiy,RU,53.0452,158.6483,34.39,69,75,2.24,light rain
312,Pangnirtung,CA,66.1451,-65.7125,26.6,74,90,3.44,light snow
313,Marzuq,YE,14.4,46.4667,66.29,36,99,2.37,overcast clouds
314,Suez,EG,29.9737,32.5263,64.04,78,31,8.93,scattered clouds
315,Saint George,US,37.1041,-113.5841,63.07,25,0,2.48,clear sky
316,Mulki,IN,13.1,74.8,78.08,88,75,0.0,mist
317,Itanhandu,BR,-22.2958,-44.9347,64.35,90,90,2.51,overcast clouds
318,Luwingu,ZM,-10.2621,29.9271,60.08,97,77,2.68,broken clouds
319,Rayachoti,IN,14.05,78.75,68.68,96,82,0.22,broken clouds
320,Saint-Prosper,CA,46.2117,-70.4811,38.68,78,72,1.61,broken clouds
321,Saint-Joseph,RE,-21.3667,55.6167,77.38,81,45,1.07,scattered clouds
322,Chabahar,IR,25.2919,60.643,75.13,65,0,5.77,clear sky
323,Burnie,AU,-41.0667,145.9167,54.82,67,97,4.74,overcast clouds
324,Belem De Sao Francisco,BR,-8.7539,-38.9658,82.04,59,85,19.48,overcast clouds
325,Cap Malheureux,MU,-19.9842,57.6142,75.69,80,2,5.32,clear sky
326,Esperance,AU,-33.8667,121.9,60.64,63,62,8.3,broken clouds
327,Ingraj Bazar,IN,25.0,88.15,62.08,54,0,2.95,clear sky
328,Oktyabrskoye,RU,43.0645,44.7417,28.54,92,86,4.47,overcast clouds
329,Sebrovo,RU,50.0981,43.2976,29.75,91,13,6.89,few clouds
330,Ayr,GB,55.4627,-4.6339,47.5,87,75,16.11,moderate rain
331,Belmonte,BR,-15.8631,-38.8828,75.7,80,68,8.1,broken clouds
332,Baijiantan,CN,45.6333,85.1833,32.34,58,100,1.14,overcast clouds
333,Jiwani,PK,25.05,61.7417,75.88,54,0,6.51,clear sky
334,Pacific Grove,US,36.6177,-121.9166,71.8,58,38,1.99,scattered clouds
335,Malatya,TR,38.5,38.0,44.65,93,90,2.3,mist
336,Natal,BR,-5.795,-35.2094,81.25,83,20,6.91,few clouds
337,Paamiut,GL,61.994,-49.6678,33.53,97,100,5.99,light snow
338,Hualmay,PE,-11.0964,-77.6139,66.45,85,100,8.66,overcast clouds
339,Gorom-Gorom,BF,14.4439,-0.2361,81.37,19,1,7.83,clear sky
340,Nouakchott,MR,18.0858,-15.9785,78.73,35,100,6.2,overcast clouds
341,Sao Desiderio,BR,-12.3633,-44.9733,76.17,70,84,2.37,broken clouds
342,Belyy Yar,RU,53.6039,91.3903,37.29,81,40,8.95,scattered clouds
343,Tanda,IN,26.55,82.65,59.31,49,0,2.55,clear sky
344,Pevek,RU,69.7008,170.3133,-14.67,99,100,2.08,overcast clouds
345,Vysokogornyy,RU,50.1167,139.15,15.24,93,100,4.85,light snow
346,Vostok,RU,46.4856,135.8833,10.72,94,100,4.63,light snow
347,Kinablangan,PH,7.6947,126.5503,80.8,79,100,4.41,moderate rain
348,Los Llanos De Aridane,ES,28.6585,-17.9182,64.15,83,75,13.8,shower rain
349,Diamantino,BR,-14.4086,-56.4461,76.3,85,83,3.51,moderate rain
350,Pangkalanbuun,ID,-2.6833,111.6167,77.63,89,96,1.97,overcast clouds
351,Olafsvik,IS,64.8945,-23.7142,31.28,64,25,12.1,scattered clouds
352,Nome,US,64.5011,-165.4064,-9.89,76,29,4.61,scattered clouds
353,Winnemucca,US,40.973,-117.7357,50.05,23,1,5.75,clear sky
354,Ambulu,ID,-8.345,113.6058,80.46,83,91,1.63,light rain
355,Beringovskiy,RU,63.05,179.3167,0.1,93,100,11.14,overcast clouds
356,Kontagora,NG,10.3999,5.4695,74.26,24,9,2.68,clear sky
357,Changli,CN,39.7042,119.1506,36.46,50,0,4.25,clear sky
358,Quang Ngai,VN,15.1167,108.8,72.16,87,93,8.05,light rain
359,Praia,CV,14.9215,-23.5087,75.74,78,40,12.66,scattered clouds
360,Bonavista,CA,48.6499,-53.1147,48.2,98,100,23.82,moderate rain
361,Pirmasens,DE,49.2015,7.6053,34.05,83,99,1.45,overcast clouds
362,Jimo,CN,36.3897,120.4622,31.78,86,0,4.47,mist
363,Goderich,CA,43.7501,-81.7165,41.92,81,100,12.66,overcast clouds
364,Kilis,TR,36.7161,37.115,50.23,87,93,2.64,overcast clouds
365,Monastyrshchina,RU,54.3496,31.838,30.33,85,52,16.31,broken clouds
366,Launceston,AU,-41.45,147.1667,60.62,53,23,10.0,few clouds
367,Santa Marta,CO,11.2408,-74.199,80.65,83,75,5.75,broken clouds
368,Laguna,US,38.421,-121.4238,64.49,61,1,1.01,clear sky
369,Gudari,IN,19.35,83.7833,66.42,88,29,2.91,scattered clouds
370,Kimberley,ZA,-28.7323,24.7623,58.69,82,100,8.05,light rain
371,Itainopolis,BR,-7.4469,-41.4783,82.29,52,83,2.75,broken clouds
372,Bonthe,SL,7.5264,-12.505,79.99,83,9,5.26,clear sky
373,Grindavik,IS,63.8424,-22.4338,30.67,69,20,17.27,few clouds
374,Staryy Nadym,RU,65.6118,72.6842,-3.71,92,77,10.29,broken clouds
375,Sioux Lookout,CA,50.1001,-91.917,7.18,72,20,3.44,few clouds
376,Halifax,CA,44.6453,-63.5724,46.4,94,90,11.01,mist
377,Portree,GB,57.4129,-6.1942,47.86,93,100,26.15,light rain
378,Cap-Aux-Meules,CA,47.3821,-61.8597,46.45,100,90,8.05,overcast clouds
379,Isilkul,RU,54.9109,71.2728,-1.64,92,14,7.14,few clouds
380,Lubango,AO,-14.9172,13.4925,59.67,40,61,5.39,broken clouds
381,Ningxiang,CN,37.34,111.2052,33.12,41,2,1.12,clear sky
382,Ambanja,MG,-13.6833,48.45,74.05,94,81,2.21,moderate rain
383,Karpathos,GR,35.507,27.2132,57.16,77,98,1.14,overcast clouds
384,Dubbo,AU,-32.25,148.6167,71.73,83,90,5.75,overcast clouds
385,Valparaiso,CL,-33.0393,-71.6273,71.83,61,0,11.5,clear sky
386,Charapan,MX,19.6667,-102.2333,51.71,63,20,2.77,few clouds
387,Ponta Delgada,PT,37.7333,-25.6667,60.49,72,75,13.8,broken clouds
388,Kologriv,RU,58.8275,44.3178,31.82,96,100,12.48,light snow
389,Suaita,CO,6.1014,-73.4404,60.78,99,89,1.43,overcast clouds
390,Labuhan,ID,-6.8844,112.2051,80.92,79,99,9.78,overcast clouds
391,Garden City,US,42.3256,-83.331,42.03,93,90,1.01,light intensity drizzle
392,Boshnyakovo,RU,49.6333,142.1667,31.77,85,100,13.58,overcast clouds
393,Byron Bay,AU,-28.65,153.6167,79.05,85,100,16.78,overcast clouds
394,Tukrah,LY,32.5341,20.5791,71.01,41,33,28.72,scattered clouds
395,Safaga,EG,26.7292,33.9365,67.95,43,0,11.54,clear sky
396,Sechura,PE,-5.5569,-80.8222,69.4,75,59,14.94,broken clouds
397,Oga,IT,46.4631,10.347,30.81,98,100,0.67,overcast clouds
398,Souris,CA,49.6172,-100.2612,25.74,74,97,9.66,overcast clouds
399,Meulaboh,ID,4.1363,96.1285,76.73,89,100,4.45,overcast clouds
400,Xai-Xai,MZ,-25.0519,33.6442,69.8,77,78,9.37,light rain
401,Dunedin,NZ,-45.8742,170.5036,60.46,61,100,5.32,overcast clouds
402,Cochabamba,BO,-17.3895,-66.1568,74.95,33,75,11.5,broken clouds
403,Haftoni,AZ,38.7632,48.7622,47.91,100,90,2.3,overcast clouds
404,Thunder Bay,CA,48.4001,-89.3168,15.57,44,1,8.05,clear sky
405,Seydi,TM,39.4816,62.9137,37.27,58,100,10.33,overcast clouds
406,Rosario Do Sul,BR,-30.2583,-54.9142,71.13,90,90,14.45,light rain
407,Cartagena Del Chaira,CO,1.3349,-74.8429,71.26,98,99,1.66,overcast clouds
408,Montrose,US,38.4166,-108.2673,35.94,37,1,2.8,clear sky
409,Torbay,CA,47.6666,-52.7314,52.29,99,90,20.71,light intensity drizzle
410,Sur,OM,22.5667,59.5289,74.52,68,0,1.05,clear sky
411,Nautla,MX,20.2167,-96.7833,74.35,83,13,6.6,few clouds
412,Vanimo,PG,-2.6741,141.3028,77.72,88,100,7.14,overcast clouds
413,Kovdor,RU,67.5662,30.4758,16.07,78,100,9.73,overcast clouds
414,Almaznyy,RU,48.0448,40.045,23.14,68,0,6.64,clear sky
415,Groton,US,41.3501,-72.0784,50.7,59,76,1.99,broken clouds
416,Vanino,RU,49.0869,140.2543,27.46,77,100,11.65,light snow
417,Codrington,AU,-38.2667,141.9667,54.37,81,74,23.29,broken clouds
418,Oranjemund,NA,-28.55,16.4333,61.56,88,45,9.51,scattered clouds
419,Ambatondrazaka,MG,-17.8333,48.4167,68.9,93,100,2.42,overcast clouds
420,Phulabani,IN,20.4667,84.2333,63.14,91,43,2.13,scattered clouds
421,Sitka,US,57.0531,-135.33,39.09,81,90,6.91,moderate rain
422,Ust-Ishim,RU,57.6935,71.1665,-0.53,98,55,4.88,broken clouds
423,Hirara,JP,24.8,125.2833,73.67,73,75,14.97,broken clouds
424,Liepaja,LV,56.5419,21.0367,41.05,87,90,18.41,overcast clouds
425,Eyl,SO,7.9803,49.8164,77.95,82,37,18.84,light rain
426,Ginda,IN,30.6945,78.4932,43.7,25,0,6.53,clear sky
427,Hamilton,US,39.1834,-84.5333,45.23,90,90,1.01,overcast clouds
428,Tabuk,PH,17.4189,121.4443,72.57,95,100,5.19,overcast clouds
429,Zaria,NG,11.1113,7.7227,70.93,25,9,7.02,clear sky
430,Novyye Burasy,RU,52.1324,46.0714,32.95,91,79,8.19,broken clouds
431,Arman,RU,59.7,150.1667,-8.99,79,15,10.89,few clouds
432,Coihaique,CL,-45.5752,-72.0662,51.75,54,75,4.61,broken clouds
433,Sungai Udang,MY,2.269,102.1427,75.07,94,40,2.3,scattered clouds
434,Fort Saint James,CA,54.4333,-124.25,40.77,77,65,9.98,broken clouds
435,Novyy Urengoy,RU,66.0833,76.6333,6.31,95,100,10.6,overcast clouds
436,Cidreira,BR,-30.1811,-50.2056,69.4,97,100,6.2,overcast clouds
437,Olinda,BR,-8.0089,-34.8553,82.13,74,40,6.91,scattered clouds
438,Port Augusta,AU,-32.5,137.7667,66.7,59,15,23.47,few clouds
439,Buraydah,SA,26.326,43.975,64.85,34,0,11.36,clear sky
440,Pilar,BR,-9.5972,-35.9567,78.73,87,34,4.52,scattered clouds
441,Waingapu,ID,-9.6567,120.2641,83.89,70,99,2.04,overcast clouds
442,Bulgan,MN,48.8125,103.5347,19.99,72,61,4.07,broken clouds
443,Socorro,US,31.6546,-106.3033,52.45,52,92,13.87,overcast clouds
444,Faya,SA,18.3851,42.4509,55.51,75,18,1.57,few clouds
445,Avera,US,33.194,-82.5271,58.53,72,78,7.4,broken clouds
446,Fortuna,US,40.5982,-124.1573,60.93,72,1,3.0,clear sky
447,Mayo,US,38.8876,-76.5119,52.25,79,83,6.33,broken clouds
448,Ulaangom,MN,49.9811,92.0667,15.33,86,100,4.92,overcast clouds
449,Sibolga,ID,1.7427,98.7792,76.33,87,100,3.2,overcast clouds
450,Lamu,KE,-2.2717,40.902,79.68,83,94,9.89,overcast clouds
451,Lekoni,GA,-1.5843,14.2591,74.26,85,100,1.12,overcast clouds
452,Kailua,US,21.4022,-157.7394,84.07,63,75,14.97,broken clouds
453,Springbok,ZA,-29.6643,17.8865,61.2,43,57,1.66,broken clouds
454,Esqueda,MX,30.7167,-109.5833,47.93,52,59,9.66,broken clouds
455,Villa Maria,AR,-32.4075,-63.2402,69.82,73,0,8.37,clear sky
456,Santa Luzia,BR,-19.7697,-43.8514,78.08,57,0,9.22,clear sky
457,Mikuni,JP,36.2171,136.1519,46.31,68,82,4.21,broken clouds
458,Sao Miguel Do Araguaia,BR,-13.275,-50.1628,76.15,82,96,4.5,overcast clouds
459,Ahuimanu,US,21.4447,-157.8378,83.79,65,17,14.56,few clouds
460,Aleksandrov Gay,RU,50.147,48.5704,27.93,91,38,7.09,scattered clouds
461,Tobetsu,JP,43.2169,141.5169,38.1,64,75,13.8,broken clouds
462,Korla,CN,41.7597,86.1469,26.91,59,7,3.69,clear sky
463,Sao Filipe,CV,14.8961,-24.4956,78.31,74,66,8.59,broken clouds
464,Ketchikan,US,55.3422,-131.6461,42.55,82,100,10.31,light rain
465,Wawa,NG,9.9022,4.4192,78.75,37,4,5.01,clear sky
466,Thai Binh,VN,20.45,106.3333,62.6,72,43,5.99,scattered clouds
467,Tessalit,ML,20.1986,1.0114,74.48,34,6,5.08,clear sky
468,Murray Bridge,AU,-35.1167,139.2667,63.48,44,71,19.42,broken clouds
469,Inirida,CO,3.8653,-67.9239,73.8,97,93,3.0,overcast clouds
470,Senanga,ZM,-16.1167,23.2667,72.25,62,98,4.45,light rain
471,Aksha,RU,50.2814,113.2867,4.48,96,88,2.28,overcast clouds
472,San Jose,US,37.3394,-121.895,68.47,38,1,0.0,clear sky
473,Dosso,NE,13.049,3.1937,79.9,17,3,8.48,clear sky
474,Saldanha,ZA,-33.0117,17.9442,73.45,52,0,16.4,clear sky
475,Saint-Francois,FR,46.4154,3.9054,34.68,91,90,4.61,overcast clouds
476,Zlotow,PL,53.3635,17.0408,36.84,86,100,13.24,overcast clouds
477,Port-Gentil,GA,-0.7193,8.7815,80.56,89,75,8.05,light rain
478,Shakiso,ET,5.75,38.9167,55.85,73,52,3.94,broken clouds
479,Vanavara,RU,60.34,102.2797,8.11,98,100,3.47,overcast clouds
480,Necochea,AR,-38.5473,-58.7368,63.03,71,35,8.1,scattered clouds
481,Terme,TR,41.2092,36.9739,47.97,81,10,5.41,clear sky
482,El Tocuyo,VE,9.7873,-69.7937,78.66,95,77,2.13,broken clouds
483,Siuna,NI,13.7332,-84.7773,71.58,96,74,4.07,broken clouds
484,Naukot,PK,24.8587,69.4024,71.37,69,0,5.23,clear sky
485,Pangdan,PH,10.2308,123.7379,79.95,81,95,3.89,overcast clouds
486,San Roque,ES,36.2107,-5.3842,52.61,77,95,6.98,overcast clouds
487,Srandakan,ID,-7.9386,110.2506,80.01,79,96,2.77,overcast clouds
488,Sembe,CG,1.6481,14.5806,70.93,89,66,2.19,broken clouds
489,Groningen,NL,53.25,6.75,42.03,93,75,1.01,broken clouds
490,La Ronge,CA,55.1001,-105.2842,14.25,85,90,10.36,light snow
491,Atar,MR,20.5169,-13.0499,80.37,28,100,4.07,overcast clouds
492,Gemena,CD,3.25,19.7667,70.88,60,42,1.34,scattered clouds
493,Nemuro,JP,43.3236,145.575,32.43,61,3,19.3,clear sky
494,Alice Springs,AU,-23.7,133.8833,67.55,64,75,14.97,broken clouds
495,Asekeyevo,RU,53.5742,52.7972,10.83,99,67,4.12,broken clouds
496,Minador Do Negrao,BR,-9.3053,-36.8647,75.52,83,85,8.97,overcast clouds
497,Miri,MY,4.4148,114.0089,75.34,100,40,2.3,scattered clouds
498,Lokosovo,RU,61.1333,74.8167,-1.07,96,77,8.32,broken clouds
499,Gat,IL,31.61,34.7642,61.39,80,55,3.42,broken clouds
500,Tucuman,AR,-26.8241,-65.2226,86.0,42,0,0.0,clear sky
501,Asfi,MA,32.2994,-9.2372,61.81,62,100,1.88,overcast clouds
502,Kutum,SD,14.2,24.6667,59.97,17,0,7.49,clear sky
503,Aguimes,ES,27.9054,-15.4461,65.03,71,75,2.3,broken clouds
504,Ternate,ID,0.8,127.4,80.87,81,100,3.71,overcast clouds
505,Dangriga,BZ,16.9692,-88.2321,80.56,69,98,7.56,overcast clouds
506,Manicore,BR,-5.8092,-61.3003,78.19,80,67,2.1,broken clouds
507,Saint Stephen,GB,50.3333,-4.9,44.87,70,20,14.97,few clouds
508,Suining,CN,30.508,105.5733,52.7,70,98,1.99,overcast clouds
509,Gilbues,BR,-9.8317,-45.3439,73.06,90,96,2.75,overcast clouds
510,Ambon,ID,-3.6954,128.1814,86.14,74,40,3.44,scattered clouds
511,Mahibadhoo,MV,3.7833,72.9667,81.03,77,90,14.14,overcast clouds
512,Khorixas,NA,-20.3667,14.9667,59.72,50,0,1.23,clear sky
513,Mankato,US,44.1636,-93.9994,19.53,64,0,5.17,clear sky
514,Rocha,UY,-34.4833,-54.3333,62.56,85,100,5.12,moderate rain
515,Flin Flon,CA,54.7682,-101.865,12.04,79,90,9.22,overcast clouds
516,Oudtshoorn,ZA,-33.5907,22.2014,53.96,71,71,8.23,broken clouds
517,Choix,MX,26.7092,-108.3219,76.73,41,72,2.39,broken clouds
518,Grand Gaube,MU,-20.0064,57.6608,75.6,80,2,5.12,clear sky
519,Kholmogory,RU,64.2229,41.656,15.91,94,100,10.85,light snow
520,Blagoyevo,RU,63.3667,47.9167,15.48,90,100,6.73,overcast clouds
521,Shuyskoye,RU,59.3736,41.0305,34.74,97,100,13.09,overcast clouds
522,Nalut,LY,30.3333,10.85,56.55,58,11,6.64,few clouds
523,Srednekolymsk,RU,67.45,153.6833,-34.53,100,19,2.17,few clouds
524,Margate,GB,51.3813,1.3862,38.7,75,92,1.99,overcast clouds
525,Boyolangu,ID,-8.1181,111.8935,80.29,81,84,5.97,light rain
526,Fuerte Olimpo,PY,-21.0415,-57.8738,77.94,85,81,10.71,broken clouds
527,Otuzco,PE,-7.9,-78.5833,30.52,88,97,2.71,snow
528,Caravelas,BR,-17.7125,-39.2481,71.85,79,1,6.4,clear sky
529,Farmington,US,36.7281,-108.2187,46.09,42,1,3.0,clear sky
530,Northam,GB,51.0333,-4.2167,45.61,75,100,16.42,overcast clouds
531,Roma,US,43.2128,-75.4557,44.65,86,100,3.11,light rain
532,Independence,US,39.0911,-94.4155,32.72,57,0,5.7,clear sky
533,Palmer,US,42.1584,-72.3287,44.82,69,90,2.8,overcast clouds
534,Poum,NC,-20.2333,164.0167,79.23,70,0,11.95,clear sky
535,Ulladulla,AU,-35.35,150.4667,61.77,93,100,16.22,moderate rain
536,Calvinia,ZA,-31.4707,19.776,63.66,43,44,22.55,scattered clouds
537,Cabedelo,BR,-6.9811,-34.8339,81.27,76,18,11.03,few clouds
538,Salalah,OM,17.0151,54.0924,77.41,49,100,3.15,overcast clouds
539,Lincoln,US,40.8,-96.667,33.17,53,1,2.53,clear sky
540,Maskinonge,CA,46.2286,-73.0192,33.73,83,100,6.91,overcast clouds
541,Bela,IN,25.9333,81.9833,59.13,53,0,3.22,clear sky
542,Nizhniy Kuranakh,RU,58.8353,125.4869,-9.54,98,79,2.26,broken clouds
543,Nacimiento,CL,-37.5,-72.6667,65.62,52,4,6.78,clear sky
544,Yambio,SS,4.5721,28.3955,70.61,49,76,2.46,broken clouds
545,Ferkessedougou,CI,9.6,-5.2,76.55,26,23,1.63,few clouds
546,Maceio,BR,-9.6658,-35.7353,80.04,83,20,5.75,few clouds
547,Urumqi,CN,43.801,87.6005,27.55,59,0,6.71,clear sky
548,Ancud,CL,-41.8697,-73.8203,53.13,76,98,5.84,overcast clouds
549,Jumla,NP,29.2747,82.1838,36.77,51,0,4.21,clear sky
550,Tuy Hoa,VN,13.0833,109.3,73.31,88,100,11.39,light rain
551,Praia Da Vitoria,PT,38.7333,-27.0667,61.05,82,75,28.3,broken clouds
552,Nelson Bay,AU,-32.7167,152.15,67.08,94,100,3.0,light rain
553,Umm Lajj,SA,25.0213,37.2685,74.55,56,0,8.52,clear sky
554,Danjiangkou,CN,32.5428,111.5086,49.68,64,0,3.67,clear sky
555,Sena Madureira,BR,-9.0656,-68.6569,79.68,66,100,2.8,overcast clouds
556,Tual,ID,-5.6667,132.75,83.53,69,100,3.18,overcast clouds
557,Westport,US,41.1415,-73.3579,53.98,58,81,1.99,broken clouds
558,Iguape,BR,-24.7081,-47.5553,70.57,93,79,7.74,broken clouds
559,Barcelos,PT,41.5388,-8.6151,50.14,87,12,6.93,few clouds
560,Jacareacanga,BR,-6.2222,-57.7528,75.04,96,99,0.43,overcast clouds
561,Celestun,MX,20.8667,-90.4,74.77,64,1,11.1,clear sky
562,Havre-Saint-Pierre,CA,50.2334,-63.5986,41.36,100,90,9.22,overcast clouds
563,Asuncion,PY,-25.3007,-57.6359,76.89,94,40,3.44,thunderstorm
564,Sokolo,ML,14.7328,-6.1219,81.59,26,43,9.44,scattered clouds
565,Sambava,MG,-14.2667,50.1667,72.21,86,17,5.12,few clouds
566,Kiunga,PG,-6.1219,141.2906,72.77,99,100,1.83,heavy intensity rain
567,Troitskoye,RU,52.9821,84.6757,16.25,91,100,11.12,overcast clouds
568,Nosy Varika,MG,-20.5833,48.5333,72.9,92,100,15.9,moderate rain
569,Mareeba,AU,-17.0,145.4333,79.52,85,98,2.44,overcast clouds
570,Rehoboth,NA,-23.3167,17.0833,61.14,24,0,9.84,clear sky
571,Sinnai,IT,39.3042,9.2036,51.94,85,40,2.3,light rain
572,Khandyga,RU,62.6667,135.6,-27.85,95,78,1.9,broken clouds
573,Novobirilyussy,RU,56.9514,90.6661,15.67,92,100,11.16,light snow
574,Vrsac,RS,45.1167,21.3036,48.02,57,0,31.07,clear sky
575,Bar Harbor,US,44.3876,-68.2039,46.02,63,30,8.03,scattered clouds
576,Clarksburg,US,39.2807,-80.3445,46.31,98,100,9.22,overcast clouds
577,Alofi,NU,-19.0595,-169.9187,75.09,94,75,5.75,light intensity shower rain
578,Kusu,JP,33.2831,131.1514,52.45,69,0,4.07,clear sky
579,Quilmana,PE,-12.95,-76.3833,66.83,83,74,4.43,broken clouds
580,Slave Lake,CA,55.2834,-114.769,26.58,86,1,4.61,clear sky
581,Ternovka,RU,51.678,41.6375,28.44,91,65,10.07,broken clouds
582,Sao Joao Da Barra,BR,-21.6403,-41.0511,72.66,80,3,9.84,clear sky
583,Mount Isa,AU,-20.7333,139.5,78.57,44,47,14.97,scattered clouds
584,Borba,BR,-4.3878,-59.5939,77.34,87,100,2.46,light rain
585,Kuito,AO,-12.3833,16.9333,58.01,92,46,4.14,scattered clouds
586,Souillac,MU,-20.5167,57.5167,75.58,83,40,3.44,scattered clouds
587,Nantucket,US,41.2835,-70.0995,50.09,67,90,16.04,overcast clouds
588,Huntsville,US,34.7304,-86.5861,55.56,92,90,1.99,mist
589,Stornoway,GB,58.2093,-6.3865,46.36,88,75,5.01,broken clouds
590,Kyaikkami,MM,16.08,97.5675,75.79,87,87,8.99,overcast clouds
591,Canete,CL,-37.8,-73.4,53.94,93,14,5.7,few clouds
592,Araouane,ML,18.9048,-3.5265,76.48,32,19,7.45,few clouds
593,Taltal,CL,-25.4,-70.4833,61.66,79,33,3.36,scattered clouds
594,Lazaro Cardenas,MX,17.9583,-102.2,79.14,78,0,4.97,clear sky
595,Camacha,PT,33.0833,-16.3333,60.22,72,75,17.27,broken clouds
596,Walvis Bay,NA,-22.9575,14.5053,60.1,77,5,11.5,clear sky
597,Turukhansk,RU,65.8167,87.9833,1.33,96,100,7.72,overcast clouds
598,Ukiah,US,39.1502,-123.2078,64.36,43,98,2.73,overcast clouds
599,Teontepec,MX,18.5,-97.5167,63.91,42,0,8.95,clear sky
600,Hami,CN,42.8,93.45,26.38,62,0,2.93,clear sky
601,Trairi,BR,-3.2778,-39.2689,80.82,74,60,10.0,broken clouds
602,Sawakin,SD,19.1059,37.3321,79.07,70,93,11.81,overcast clouds
603,Kose,TR,40.21,39.6511,35.64,99,100,1.12,overcast clouds
604,Shiyan,CN,32.6475,110.7781,48.09,72,0,3.56,clear sky
605,Nichinan,JP,31.6,131.3667,51.48,67,46,5.37,scattered clouds
606,Shitanjing,CN,39.2342,106.3439,31.17,39,11,5.23,few clouds
607,Amsterdam,NL,52.374,4.8897,44.98,90,40,5.01,scattered clouds
608,Kattivakkam,IN,13.2167,80.3167,80.69,96,100,13.51,light rain
609,Bradford,GB,53.7939,-1.7521,42.93,78,100,16.4,light rain
610,Pitiquito,MX,30.7,-112.0833,75.4,34,58,10.56,broken clouds
611,Sao Felix Do Xingu,BR,-6.6447,-51.995,73.13,97,100,0.98,overcast clouds
612,Healdsburg,US,38.6105,-122.8692,66.02,47,88,1.48,overcast clouds
613,Svetlogorsk,BY,52.6333,29.7333,31.89,78,12,14.79,few clouds
614,Teya,RU,60.3778,92.6267,9.68,97,100,2.21,overcast clouds
615,Mongagua,BR,-24.0931,-46.6208,83.93,87,57,3.85,broken clouds
616,Duluth,US,46.7833,-92.1066,17.29,57,20,1.01,few clouds
617,Gueret,FR,46.1667,1.8667,34.43,97,93,2.39,overcast clouds
618,Jhinjhak,IN,26.5667,79.7333,60.71,50,0,2.13,clear sky
619,Riberalta,BO,-10.9833,-66.1,86.2,74,75,6.91,broken clouds
620,Salamiyah,SY,35.0113,37.0532,54.88,82,19,2.17,few clouds
621,Hongjiang,CN,27.11,109.9956,50.2,79,0,2.53,clear sky
622,Lumsden,CA,50.6501,-104.8678,36.59,87,100,8.08,overcast clouds
623,Pacifica,US,37.6138,-122.4869,67.51,58,1,1.01,clear sky
624,Namibe,AO,-15.1961,12.1522,66.85,73,44,7.87,scattered clouds
625,Hornepayne,CA,49.2138,-84.7705,11.44,87,100,9.24,overcast clouds
626,Bhikangaon,IN,21.8667,75.95,66.38,51,38,4.74,scattered clouds
627,Grenville,GD,12.1167,-61.6167,80.96,79,66,7.94,broken clouds
628,Kayes,ML,14.0,-11.0,84.33,20,87,2.39,overcast clouds
629,Voznesenye,RU,61.0106,35.4781,37.74,97,100,15.17,overcast clouds
630,Kirakira,SB,-10.4544,161.9205,83.55,77,95,5.17,overcast clouds
631,The Valley,AI,18.217,-63.0578,78.82,94,40,10.36,scattered clouds
632,Kargat,RU,55.1956,80.2811,-6.41,99,17,7.76,few clouds
633,Ouadda,CF,8.0777,22.4007,66.85,28,22,3.56,few clouds
634,Miles City,US,46.4083,-105.8406,49.51,47,95,8.7,overcast clouds
635,Talara,PE,-4.5772,-81.2719,65.39,90,96,11.25,overcast clouds
636,Cochrane,CA,51.1834,-114.4687,49.64,53,75,16.11,broken clouds
637,Gobabis,NA,-22.45,18.9667,69.19,9,0,7.81,clear sky
638,Puerto Carreno,CO,6.189,-67.4859,79.29,84,100,3.94,overcast clouds
639,Manama,BH,26.2154,50.5832,73.38,76,0,6.91,clear sky
640,Wanaka,NZ,-44.7,169.15,60.12,56,99,8.99,overcast clouds
641,Sitrah,BH,26.1547,50.6206,73.4,77,0,1.99,clear sky
642,Puerto Colombia,CO,10.9878,-74.9547,80.69,82,78,21.05,broken clouds
643,Moron,AR,-34.6534,-58.6198,69.55,82,97,1.99,overcast clouds
644,Kudahuvadhoo,MV,2.6708,72.8944,81.21,71,84,14.34,broken clouds
645,Wajima,JP,37.4,136.9,45.28,93,75,1.14,broken clouds
646,Bongaree,AU,-27.0797,153.1586,81.21,84,100,16.78,overcast clouds
647,Mazyr,BY,52.0495,29.2456,32.36,78,9,13.27,clear sky
648,Totolapa,MX,18.5167,-96.1833,78.93,87,2,4.79,clear sky
649,Ongandjera,NA,-17.8833,15.0667,72.7,20,2,8.79,clear sky
650,Raymondville,US,26.4815,-97.7831,73.9,89,100,18.9,light rain
651,Thabazimbi,ZA,-24.5917,27.4116,61.11,70,4,9.55,clear sky
652,Adrar,MR,20.5022,-10.0711,76.41,32,99,5.12,overcast clouds
653,Lalsk,RU,60.7415,47.5862,18.43,95,100,9.71,light snow
654,Yar-Sale,RU,66.8333,70.8333,1.53,91,89,6.82,overcast clouds
655,Prieska,ZA,-29.6641,22.7474,68.18,58,100,24.18,light rain
656,Port Moresby,PG,-9.4431,147.1797,85.42,74,20,9.22,haze
657,Seddon,AU,-37.8068,144.8916,64.22,79,90,17.27,overcast clouds
658,Florianopolis,BR,-27.6146,-48.5012,71.37,87,75,3.0,broken clouds
659,Carutapera,BR,-1.195,-46.02,77.97,86,88,6.02,overcast clouds
660,Majene,ID,-3.5403,118.9707,82.24,75,91,2.71,overcast clouds
661,Cabinda,AO,-5.55,12.2,77.67,87,100,3.42,overcast clouds
662,Shevchenkove,UA,49.6959,37.1735,28.18,82,7,8.66,clear sky
663,Santa Cruz De La Palma,ES,28.6835,-17.7642,68.14,83,75,13.8,mist
664,Shubarshi,KZ,48.5872,57.1869,20.1,87,95,10.96,overcast clouds
665,Haines Junction,CA,60.7522,-137.5108,3.15,78,100,4.61,overcast clouds
666,Axim,GH,4.8699,-2.2405,79.75,85,7,7.67,clear sky
667,Tonatico,MX,21.4911,-98.8127,75.07,77,85,1.07,overcast clouds
668,Juneau,US,58.3019,-134.4197,37.85,95,90,5.75,moderate rain
669,Gamba,GA,-2.65,10.0,76.28,92,100,4.09,light rain
670,Swan River,CA,52.1058,-101.2676,12.09,79,100,3.44,overcast clouds
671,Damavand,IR,35.7178,52.065,42.64,53,98,1.61,overcast clouds
672,Fasa,IR,28.9383,53.6482,42.04,45,0,4.61,clear sky
673,Shanghai,CN,31.2222,121.4581,58.93,55,0,2.24,clear sky
674,Bandarbeyla,SO,9.4942,50.8122,78.89,77,65,15.68,broken clouds
675,Sisimiut,GL,66.9395,-53.6735,24.44,73,100,12.71,overcast clouds
676,Andenes,NO,69.3143,16.1194,26.58,80,90,12.66,snow
677,Nyurba,RU,63.2842,118.3319,-10.75,100,92,2.86,overcast clouds
678,Xichang,CN,27.8964,102.2634,49.32,83,98,1.25,overcast clouds
679,Krasnokamensk,RU,50.0979,118.0369,0.05,96,23,2.15,few clouds
680,Kavaratti,IN,10.5669,72.642,81.7,75,100,4.85,overcast clouds
681,Pierre,US,44.3683,-100.351,32.86,52,93,4.0,overcast clouds
682,Tiarei,PF,-17.5333,-149.3333,87.82,71,17,16.2,few clouds
683,Myitkyina,MM,25.3833,97.4,55.99,72,0,2.59,clear sky
684,Boppard,DE,50.2308,7.5899,40.41,81,91,3.27,overcast clouds
685,Bilibino,RU,68.0546,166.4372,-28.19,98,96,3.83,overcast clouds
686,Sinnamary,GF,5.3833,-52.95,78.76,84,86,5.66,overcast clouds
687,Abha,SA,18.2164,42.5053,55.22,94,15,0.0,few clouds
688,Funtua,NG,11.5233,7.3081,69.66,25,13,7.54,few clouds
689,Naryan-Mar,RU,67.6713,53.087,3.24,94,57,4.61,broken clouds
690,Manzanillo,CU,20.3433,-77.1167,75.65,68,72,13.91,broken clouds
691,Kimbe,PG,-5.5502,150.1429,88.48,58,93,3.44,overcast clouds
692,Utiel,ES,39.5667,-1.2,43.03,79,75,5.21,broken clouds
693,Itapirapua,BR,-15.8233,-50.6133,77.86,64,88,2.48,overcast clouds
694,Antofagasta,CL,-23.65,-70.4,61.88,80,32,4.94,scattered clouds
695,Kapuskasing,CA,49.4169,-82.4331,10.49,85,90,14.97,light snow
696,Ekimchan,RU,53.0667,132.9667,5.22,96,63,2.71,broken clouds
697,Chicama,PE,-7.8447,-79.1469,63.14,81,70,7.16,broken clouds
698,Dourbali,TD,11.8091,15.8632,74.39,14,7,8.63,clear sky
699,Limoeiro,BR,-7.8747,-35.4503,80.83,84,43,5.44,scattered clouds
700,Calamar,CO,10.2511,-74.9146,82.35,90,88,5.86,overcast clouds
701,Barra Patuca,HN,15.8,-84.2833,77.14,82,86,8.39,overcast clouds
702,Arlit,NE,18.7369,7.3853,75.96,23,2,11.12,clear sky
703,Kjollefjord,NO,70.9457,27.3465,13.82,62,0,14.97,clear sky
704,Jamame,SO,0.0722,42.7506,78.03,89,84,7.99,broken clouds
705,Mocuba,MZ,-16.8392,36.9856,71.19,94,100,5.12,light rain
